[{"name":"Turu","city":"S\u00e3o Lu\u00eds","cases":"397","coordinates":"{\"lat\":\"-2.5145899340367626\",\"lng\":\"-44.22330751895227\"}","shape_leng":"16602,847201","fid":58},{"name":"Cidade Oper\u00e1ria","city":"S\u00e3o Lu\u00eds","cases":"304","coordinates":"{\"lat\":\"-2.5747813892242255\",\"lng\":\"-44.20184715202155\"}","shape_leng":"7446,170292","fid":139},{"name":"Renascen\u00e7a","city":"S\u00e3o Lu\u00eds","cases":"289","coordinates":"{\"lat\":\"-2.5025851532175882\",\"lng\":\"-44.28922548770227\"}","shape_leng":"12053,918645","fid":89},{"name":"Cohatrac I, II, III, IV, Primavera-Cohatrac","city":"S\u00e3o Lu\u00eds","cases":"230","coordinates":"{\"lat\":\"-2.5373987128409388\",\"lng\":\"-44.20150652407922\"}","shape_leng":"5367,469452","fid":75},{"name":"Centro","city":"S\u00e3o Lu\u00eds","cases":"224","coordinates":"{\"lat\":\"-2.5277950653361927\",\"lng\":\"-44.296778588288205\"}","shape_leng":"10916,68006","fid":167},{"name":"Calhau","city":"S\u00e3o Lu\u00eds","cases":"203","coordinates":"{\"lat\":\"-2.4912662591739902\",\"lng\":\"-44.26141634463586\"}","shape_leng":"13410,188324","fid":108},{"name":"Anjo da Guarda","city":"S\u00e3o Lu\u00eds","cases":"184","coordinates":"{\"lat\":\"-2.5608073042426662\",\"lng\":\"-44.329737572663205\"}","shape_leng":"6380,730807","fid":87},{"name":"MAIOB\u00c3O","city":"Pa\u00e7o do Lumiar","cases":"172","coordinates":"{\"lat\":-2.540600,\"lng\":-44.172598}","shape_leng":null,"fid":null},{"name":"Olho D'\u00e1gua","city":"S\u00e3o Lu\u00eds","cases":"165","coordinates":"{\"lat\":\"-2.485778275499324\",\"lng\":\"-44.22948732852258\"}","shape_leng":null,"fid":null},{"name":"Anil","city":"S\u00e3o Lu\u00eds","cases":"161","coordinates":"{\"lat\":\"-2.543743940823098\",\"lng\":\"-44.241846947663205\"}","shape_leng":"11058,577229","fid":148},{"name":"Cohama","city":"S\u00e3o Lu\u00eds","cases":"158","coordinates":"{\"lat\":\"-2.5128749720988925\",\"lng\":\"-44.244078545563596\"}","shape_leng":"6777,792406","fid":183},{"name":"ARA\u00c7AGY","city":"S\u00e3o Jos\u00e9 de Ribamar","cases":"153","coordinates":"{\"lat\":-2.4738996901849295, \"lng\":-44.195968493578356}","shape_leng":null,"fid":9},{"name":"S\u00e3o Francisco","city":"S\u00e3o Lu\u00eds","cases":"147","coordinates":"{\"lat\":\"-2.5108170147999687\",\"lng\":\"-44.30707827090539\"}","shape_leng":"7407,940101","fid":67},{"name":"Vila Embratel","city":"S\u00e3o Lu\u00eds","cases":"140","coordinates":"{\"lat\":\"-2.5751266348999917\",\"lng\":\"-44.30295839785852\"}","shape_leng":"14779,46053","fid":11},{"name":"Ponta d'Areia","city":"S\u00e3o Lu\u00eds","cases":"131","coordinates":"{\"lat\":\"-2.4981262066000074\",\"lng\":\"-44.308794884674924\"}","shape_leng":null,"fid":null},{"name":"Liberdade","city":"S\u00e3o Lu\u00eds","cases":"130","coordinates":"{\"lat\":\"-2.5270233405734057\",\"lng\":\"-44.285019783966916\"}","shape_leng":"4530,291662","fid":0},{"name":"Bairro de F\u00e1tima","city":"S\u00e3o Lu\u00eds","cases":"122","coordinates":"{\"lat\":\"-2.5472251523345375\",\"lng\":\"-44.281586556427854\"}","shape_leng":"4118,198041","fid":42},{"name":"Bequim\u00e3o","city":"S\u00e3o Lu\u00eds","cases":"122","coordinates":"{\"lat\":\"-2.5272805822119877\",\"lng\":\"-44.24493685244836\"}","shape_leng":"6668,018458","fid":101},{"name":"Jardim S\u00e3o Crist\u00f3v\u00e3o \/ Conjunto Ju\u00e7ara \/ Conjunto Penalva","city":"S\u00e3o Lu\u00eds","cases":"114","coordinates":"{\"lat\":\"-2.570417922468514\",\"lng\":\"-44.2260387246369\"}","shape_leng":"9836,496472","fid":109},{"name":"Angelim","city":"S\u00e3o Lu\u00eds","cases":"110","coordinates":"{\"lat\":\"-2.5286525367566504\",\"lng\":\"-44.228629021637815\"}","shape_leng":"7356,463007","fid":155},{"name":"Monte Castelo","city":"S\u00e3o Lu\u00eds","cases":"109","coordinates":"{\"lat\":\"-2.534020218973493\",\"lng\":\"-44.28124323367395\"}","shape_leng":"3867,046903","fid":76},{"name":"Conjunto Habitacional Vinhais","city":"S\u00e3o Lu\u00eds","cases":"102","coordinates":"{\"lat\":\"-2.5125319794409413\",\"lng\":\"-44.25626650332727\"}","shape_leng":"4293,756547","fid":147},{"name":"Coroadinho","city":"S\u00e3o Lu\u00eds","cases":"98","coordinates":"{\"lat\":\"-2.5627771675554567\",\"lng\":\"-44.26673515250983\"}","shape_leng":"6530,01225","fid":33},{"name":"Cohab Anil I","city":"S\u00e3o Lu\u00eds","cases":"86","coordinates":"{\"lat\":\"-2.535512287702439\",\"lng\":\"-44.22219172000207\"}","shape_leng":"1880,636941","fid":40},{"name":"Jo\u00e3o Paulo","city":"S\u00e3o Lu\u00eds","cases":"84","coordinates":"{\"lat\":\"-2.548028969738103\",\"lng\":\"-44.274631575849675\"}","shape_leng":"6120,305358","fid":131},{"name":"Maracan\u00e3","city":"S\u00e3o Lu\u00eds","cases":"82","coordinates":"{\"lat\":\"-2.6213158124341054\",\"lng\":\"-44.266050746465794\"}","shape_leng":"30506,718553","fid":17},{"name":"PARQUE VITORIA","city":"S\u00e3o Jos\u00e9 de Ribamar","cases":"82","coordinates":"{\"lat\":-2.515943, \"lng\":-44.207251}","shape_leng":null,"fid":4},{"name":"Cidade Ol\u00edmpica","city":"S\u00e3o Lu\u00eds","cases":"72","coordinates":"{\"lat\":\"-2.604450748896412\",\"lng\":\"-44.17627230166711\"}","shape_leng":"16951,973225","fid":5},{"name":"Conjunto S\u00e3o Raimundo","city":"S\u00e3o Lu\u00eds","cases":"72","coordinates":"{\"lat\":\"-2.594504634306457\",\"lng\":\"-44.22853570810154\"}","shape_leng":"6843,620396","fid":15},{"name":"Forquilha","city":"S\u00e3o Lu\u00eds","cases":"66","coordinates":"{\"lat\":\"-2.5518687377114415\",\"lng\":\"-44.21199033477559\"}","shape_leng":"7488,0712","fid":118},{"name":"MAIOBINHA","city":"S\u00e3o Jos\u00e9 de Ribamar","cases":"64","coordinates":"{\"lat\":-2.559269,\"lng\":-44.204473}","shape_leng":null,"fid":23},{"name":"Vila Palmeira","city":"S\u00e3o Lu\u00eds","cases":"62","coordinates":"{\"lat\":\"-2.541514539950302\",\"lng\":\"-44.25403490542688\"}","shape_leng":"5225,15381","fid":61},{"name":"Alemanha","city":"S\u00e3o Lu\u00eds","cases":"60","coordinates":"{\"lat\":\"-2.534654820821078\",\"lng\":\"-44.26862612246789\"}","shape_leng":"4498,923957","fid":52},{"name":"Jardim Am\u00e9rica","city":"S\u00e3o Lu\u00eds","cases":"58","coordinates":"{\"lat\":\"-2.5862733078798685\",\"lng\":\"-44.196435030611305\"}","shape_leng":"2597,780564","fid":129},{"name":"Cruzeiro do Anil","city":"S\u00e3o Lu\u00eds","cases":"57","coordinates":"{\"lat\":\"-2.543227194410928\",\"lng\":\"-44.23137290885749\"}","shape_leng":"6987,400676","fid":77},{"name":"Aurora","city":"S\u00e3o Lu\u00eds","cases":"56","coordinates":"{\"lat\":\"-2.550775102931775\",\"lng\":\"-44.231890587799924\"}","shape_leng":"5647,804794","fid":22},{"name":"Cohafuma","city":"S\u00e3o Lu\u00eds","cases":"56","coordinates":"{\"lat\":\"-2.511074259639652\",\"lng\":\"-44.26596537112512\"}","shape_leng":"2660,996568","fid":107},{"name":"Jardim Eldorado","city":"S\u00e3o Lu\u00eds","cases":"56","coordinates":"{\"lat\":\"-2.509445041466459\",\"lng\":\"-44.227599053376096\"}","shape_leng":"5878,989997","fid":24},{"name":"Jo\u00e3o de Deus","city":"S\u00e3o Lu\u00eds","cases":"56","coordinates":"{\"lat\":\"-2.556584735531498\",\"lng\":\"-44.230873086240436\"}","shape_leng":"5122,91777","fid":54},{"name":"Recanto dos Vinhais","city":"S\u00e3o Lu\u00eds","cases":"54","coordinates":"{\"lat\":\"-2.519128774955299\",\"lng\":\"-44.25938018257664\"}","shape_leng":"3846,584568","fid":20},{"name":"Ponta do Farol","city":"S\u00e3o Lu\u00eds","cases":"53","coordinates":"{\"lat\":\"-2.4912662591739902\",\"lng\":\"-44.290770440094846\"}","shape_leng":"3675,172841","fid":38},{"name":"Vila Fialho","city":"S\u00e3o Lu\u00eds","cases":"50","coordinates":"{\"lat\":\"-2.509959531635287\",\"lng\":\"-44.23995867251672\"}","shape_leng":"2378,838702","fid":36},{"name":"JARDIM TROPICAL","city":"S\u00e3o Jos\u00e9 de Ribamar","cases":"46","coordinates":"{\"lat\":-2.575444,\"lng\":-44.178199}","shape_leng":null,"fid":19},{"name":"S\u00e3o Bernardo","city":"S\u00e3o Lu\u00eds","cases":"46","coordinates":"{\"lat\":\"-2.564151353903329\",\"lng\":\"-44.21798601626672\"}","shape_leng":"4464,741113","fid":90},{"name":"Cohab Anil III","city":"S\u00e3o Lu\u00eds","cases":"45","coordinates":"{\"lat\":\"-2.5459733378420926\",\"lng\":\"-44.2195309686593\"}","shape_leng":"4002,899997","fid":127},{"name":"Vila Jana\u00edna","city":"S\u00e3o Lu\u00eds","cases":"42","coordinates":"{\"lat\":\"-2.5933019663286836\",\"lng\":\"-44.19189079215827\"}","shape_leng":"7891,842013","fid":112},{"name":"NOVO COHATRAC","city":"S\u00e3o Jos\u00e9 de Ribamar","cases":"41","coordinates":"{\"lat\":-2.530516,\"lng\":-44.188797}","shape_leng":null,"fid":2},{"name":"CENTRO (S\u00e3o Jos\u00e9 de Ribamar)","city":"S\u00e3o Jos\u00e9 de Ribamar","cases":"37","coordinates":"{\"lat\":-2.5576715387552085, \"lng\":-44.056608462083204}","shape_leng":null,"fid":74},{"name":"Santa Cruz","city":"S\u00e3o Lu\u00eds","cases":"37","coordinates":"{\"lat\":\"-2.549210622223693\",\"lng\":\"-44.24606511810079\"}","shape_leng":"5121,544719","fid":44},{"name":"Santa Efig\u00eania","city":"S\u00e3o Lu\u00eds","cases":"36","coordinates":"{\"lat\":\"-2.5750052359064854\",\"lng\":\"-44.19007566616522\"}","shape_leng":"2862,082456","fid":27},{"name":"Lira","city":"S\u00e3o Lu\u00eds","cases":"35","coordinates":"{\"lat\":\"-2.54225188159924\",\"lng\":\"-44.29265871524133\"}","shape_leng":"3238,289828","fid":130},{"name":"ALTO TURU","city":"S\u00e3o Jos\u00e9 de Ribamar","cases":"33","coordinates":"{\"lat\":-2.516627, \"lng\":-44.196560}","shape_leng":null,"fid":1},{"name":"Conjunto Dom Sebasti\u00e3o \/ Vila dos Nobres \/ Pq. Dos Nobres \/ Parque Timbira","city":"S\u00e3o Lu\u00eds","cases":"33","coordinates":"{\"lat\":\"-2.5608930492148474\",\"lng\":\"-44.27549257754602\"}","shape_leng":"3814,675591","fid":180},{"name":"Areinha","city":"S\u00e3o Lu\u00eds","cases":"32","coordinates":"{\"lat\":\"-2.5471737807933494\",\"lng\":\"-44.29162874697961\"}","shape_leng":"6004,434432","fid":117},{"name":"Filipinho \/ Reden\u00e7\u00e3o","city":"S\u00e3o Lu\u00eds","cases":"32","coordinates":"{\"lat\":\"-2.552147032523243\",\"lng\":\"-44.265064148896116\"}","shape_leng":"1726,643771","fid":82},{"name":"Bom Jesus","city":"S\u00e3o Lu\u00eds","cases":"31","coordinates":"{\"lat\":\"-2.5658662477754968\",\"lng\":\"-44.27420511721887\"}","shape_leng":"2175,134899","fid":162},{"name":"Coroado","city":"S\u00e3o Lu\u00eds","cases":"30","coordinates":"{\"lat\":\"-2.554942258545604\",\"lng\":\"-44.26793947696008\"}","shape_leng":"3211,440624","fid":111},{"name":"Maranh\u00e3o Novo","city":"S\u00e3o Lu\u00eds","cases":"30","coordinates":"{\"lat\":\"-2.530281730894061\",\"lng\":\"-44.25497904300012\"}","shape_leng":"3923,758483","fid":94},{"name":"Planalto Anil","city":"S\u00e3o Lu\u00eds","cases":"30","coordinates":"{\"lat\":\"-2.5554482321005674\",\"lng\":\"-44.22631159304895\"}","shape_leng":"1708,382162","fid":70},{"name":"Sacav\u00e9m","city":"S\u00e3o Lu\u00eds","cases":"30","coordinates":"{\"lat\":\"-2.5545992770311585\",\"lng\":\"-44.26012888430871\"}","shape_leng":"4170,226525","fid":30},{"name":"Vila Passos","city":"S\u00e3o Lu\u00eds","cases":"30","coordinates":"{\"lat\":\"-2.5351693010180654\",\"lng\":\"-44.28871050357141\"}","shape_leng":"2608,87802","fid":21},{"name":"COHATRAC V","city":"S\u00e3o Jos\u00e9 de Ribamar","cases":"28","coordinates":"{\"lat\":-2.546429,\"lng\":-44.206843}","shape_leng":null,"fid":3},{"name":"Jordoa","city":"S\u00e3o Lu\u00eds","cases":"27","coordinates":"{\"lat\":\"-2.54954028905944\",\"lng\":\"-44.268111138337034\"}","shape_leng":"2757,951368","fid":141},{"name":"Parque Atenas","city":"S\u00e3o Lu\u00eds","cases":"27","coordinates":"{\"lat\":\"-2.5026828454595913\",\"lng\":\"-44.24885370482176\"}","shape_leng":"4181,195559","fid":29},{"name":"S\u00e1 Viana","city":"S\u00e3o Lu\u00eds","cases":"27","coordinates":"{\"lat\":\"-2.555574580486354\",\"lng\":\"-44.30072410514655\"}","shape_leng":"10059,442283","fid":63},{"name":"Ch\u00e1cara Brasil","city":"S\u00e3o Lu\u00eds","cases":"26","coordinates":"{\"lat\":\"-2.5056721073776838\",\"lng\":\"-44.219359307282346\"}","shape_leng":"4300,805313","fid":62},{"name":"Ipase","city":"S\u00e3o Lu\u00eds","cases":"26","coordinates":"{\"lat\":\"-2.5360267675585093\",\"lng\":\"-44.259098916046995\"}","shape_leng":"3902,454479","fid":157},{"name":"Jardim de F\u00e1tima","city":"S\u00e3o Lu\u00eds","cases":"26","coordinates":"{\"lat\":\"-2.5329398853543665\",\"lng\":\"-44.224165825837034\"}","shape_leng":"1799,958998","fid":164},{"name":"MOROPOIA","city":"S\u00e3o Jos\u00e9 de Ribamar","cases":"26","coordinates":"{\"lat\":-2.550142,\"lng\":-44.064556}","shape_leng":null,"fid":29},{"name":"Apeadouro","city":"S\u00e3o Lu\u00eds","cases":"25","coordinates":"{\"lat\":\"-2.5394995012330632\",\"lng\":\"-44.27686586856164\"}","shape_leng":"3410,853178","fid":41},{"name":"Bela Vista \/ Primavera I (Cohajap)","city":"S\u00e3o Lu\u00eds","cases":"25","coordinates":"{\"lat\":\"-2.503283087071121\",\"lng\":\"-44.24190141905516\"}","shape_leng":"4087,262246","fid":84},{"name":"CAMPINA","city":"S\u00e3o Jos\u00e9 de Ribamar","cases":"25","coordinates":"{\"lat\":-2.557979,\"lng\":-44.061986}","shape_leng":null,"fid":50},{"name":"Coheb","city":"S\u00e3o Lu\u00eds","cases":"25","coordinates":"{\"lat\":\"-2.558128149237092\",\"lng\":\"-44.251129128720905\"}","shape_leng":"3976,959867","fid":165},{"name":"Residencial Planalto Vinhais I \/ Vinhais VI","city":"S\u00e3o Lu\u00eds","cases":"25","coordinates":"{\"lat\":\"-2.507987318222016\",\"lng\":\"-44.25489321231164\"}","shape_leng":"2463,796686","fid":92},{"name":"VILA KIOLA","city":"S\u00e3o Jos\u00e9 de Ribamar","cases":"25","coordinates":"{\"lat\":-2.555103,\"lng\":-44.185122}","shape_leng":null,"fid":63},{"name":"Santa Clara","city":"S\u00e3o Lu\u00eds","cases":"24","coordinates":"{\"lat\":\"-2.589872250227322\",\"lng\":\"-44.19978721549811\"}","shape_leng":"7212,824511","fid":150},{"name":"Cohaserma \/ Cohaserma II","city":"S\u00e3o Lu\u00eds","cases":"23","coordinates":"{\"lat\":\"-2.508844802680242\",\"lng\":\"-44.24416437625207\"}","shape_leng":"2732,193318","fid":68},{"name":"Ipem S\u00e3o Crist\u00f3v\u00e3o\/Conjunto S\u00e3o Carlos","city":"S\u00e3o Lu\u00eds","cases":"23","coordinates":"{\"lat\":\"-2.5686529454113103\",\"lng\":\"-44.22030344485559\"}","shape_leng":"2179,270327","fid":116},{"name":"Jaracaty","city":"S\u00e3o Lu\u00eds","cases":"23","coordinates":"{\"lat\":\"-2.5161333978534586\",\"lng\":\"-44.28974047183313\"}","shape_leng":"4454,267777","fid":50},{"name":"PINDA\u00cd","city":"S\u00e3o Jos\u00e9 de Ribamar","cases":"23","coordinates":"{\"lat\":-2.560975, \"lng\":-44.127551}","shape_leng":null,"fid":40},{"name":"Jardim das Margaridas \/ Parque Aurora \/ Planalto Anil I, II, III","city":"S\u00e3o Lu\u00eds","cases":"22","coordinates":"{\"lat\":\"-2.5452851003132335\",\"lng\":\"-44.21180351188483\"}","shape_leng":"4382,532019","fid":154},{"name":"MIRITIUA","city":"S\u00e3o Jos\u00e9 de Ribamar","cases":"22","coordinates":"{\"lat\":-2.498636,\"lng\":-44.199086}","shape_leng":null,"fid":8},{"name":"Camboa","city":"S\u00e3o Lu\u00eds","cases":"21","coordinates":"{\"lat\":\"-2.522650224923182\",\"lng\":\"-44.29042711734094\"}","shape_leng":"2722,735884","fid":23},{"name":"Caratatiua","city":"S\u00e3o Lu\u00eds","cases":"21","coordinates":"{\"lat\":\"-2.540108224506833\",\"lng\":\"-44.27188768863\"}","shape_leng":"3221,130594","fid":146},{"name":"MAIOBA","city":"Pa\u00e7o do Lumiar","cases":"21","coordinates":"{\"lat\":-2.510893,\"lng\":-44.164469}","shape_leng":null,"fid":null},{"name":"Outeiro da Cruz","city":"S\u00e3o Lu\u00eds","cases":"21","coordinates":"{\"lat\":\"-2.5516115009688654\",\"lng\":\"-44.25421903350606\"}","shape_leng":"3610,014482","fid":49},{"name":"Santo Antonio","city":"S\u00e3o Lu\u00eds","cases":"21","coordinates":"{\"lat\":\"-2.5541838660777945\",\"lng\":\"-44.249155022885944\"}","shape_leng":"5041,725128","fid":103},{"name":"Tirirical","city":"S\u00e3o Lu\u00eds","cases":"21","coordinates":"{\"lat\":\"-2.5849014149443565\",\"lng\":\"-44.23368554941013\"}","shape_leng":"16027,453255","fid":85},{"name":"Conjunto Habitacional Turu \/ Jardim Atl\u00e2ntico","city":"S\u00e3o Lu\u00eds","cases":"20","coordinates":"{\"lat\":\"-2.5025851532175882\",\"lng\":\"-44.225882439606565\"}","shape_leng":"3246,733938","fid":178},{"name":"SARAMANTA","city":"S\u00e3o Jos\u00e9 de Ribamar","cases":"20","coordinates":"{\"lat\":-2.552279,\"lng\":-44.196741}","shape_leng":null,"fid":0},{"name":"Tibiri","city":"S\u00e3o Lu\u00eds","cases":"20","coordinates":"{\"lat\":\"-2.6165143140988043\",\"lng\":\"-44.23446505310642\"}","shape_leng":"11068,131171","fid":174},{"name":"J. CAMARA","city":"S\u00e3o Jos\u00e9 de Ribamar","cases":"19","coordinates":"{\"lat\":-2.5455869859675837,\"lng\":-44.06839370727539}","shape_leng":null,"fid":15},{"name":"Vila Nova","city":"S\u00e3o Lu\u00eds","cases":"19","coordinates":"{\"lat\":\"-2.53705572665679\",\"lng\":\"-44.318236260407346\"}","shape_leng":"9395,884786","fid":65},{"name":"Cohab Anil IV","city":"S\u00e3o Lu\u00eds","cases":"18","coordinates":"{\"lat\":\"-2.5469812308067623\",\"lng\":\"-44.214393594052936\"}","shape_leng":"4847,779511","fid":105},{"name":"CRUZEIRO","city":"S\u00e3o Jos\u00e9 de Ribamar","cases":"18","coordinates":"{\"lat\":-2.553571,\"lng\":-44.058366}","shape_leng":null,"fid":10},{"name":"Ivar Saldanha","city":"S\u00e3o Lu\u00eds","cases":"18","coordinates":"{\"lat\":\"-2.5391650142588347\",\"lng\":\"-44.26527872561731\"}","shape_leng":"3232,354447","fid":161},{"name":"Jardim S\u00e3o Crist\u00f3v\u00e3o II","city":"S\u00e3o Lu\u00eds","cases":"18","coordinates":"{\"lat\":\"-2.5799355076333357\",\"lng\":\"-44.21376493618475\"}","shape_leng":"14044,812988","fid":152},{"name":"PARAN\u00c3","city":"Pa\u00e7o do Lumiar","cases":"18","coordinates":"{\"lat\":-2.534936,\"lng\":-44.159598}","shape_leng":null,"fid":null},{"name":"Radional","city":"S\u00e3o Lu\u00eds","cases":"18","coordinates":"{\"lat\":\"-2.54665930537979\",\"lng\":\"-44.2510308313302\"}","shape_leng":"2205,650851","fid":151},{"name":"Vila Itamar","city":"S\u00e3o Lu\u00eds","cases":"18","coordinates":"{\"lat\":\"-2.588331144500838\",\"lng\":\"-44.2634762811593\"}","shape_leng":"16547,464584","fid":175},{"name":"CIDADE VERDE","city":"Pa\u00e7o do Lumiar","cases":"17","coordinates":"{\"lat\":-2.533141,\"lng\":-44.140683}","shape_leng":null,"fid":null},{"name":"Cor\u00e9ia","city":"S\u00e3o Lu\u00eds","cases":"17","coordinates":"{\"lat\":\"-2.5382561779032264\",\"lng\":\"-44.29042711734094\"}","shape_leng":"2622,215406","fid":55},{"name":"Cutim Anil","city":"S\u00e3o Lu\u00eds","cases":"17","coordinates":"{\"lat\":\"-2.55240426915866\",\"lng\":\"-44.247082619660276\"}","shape_leng":"2030,30632","fid":102},{"name":"NOVA TERRA","city":"S\u00e3o Jos\u00e9 de Ribamar","cases":"17","coordinates":"{\"lat\":-2.571158,\"lng\": -44.151800}","shape_leng":null,"fid":31},{"name":"Pindorama","city":"S\u00e3o Lu\u00eds","cases":"17","coordinates":"{\"lat\":\"-2.5572894858392177\",\"lng\":\"-44.284587935712956\"}","shape_leng":"4972,300932","fid":143},{"name":"Vila Bacanga","city":"S\u00e3o Lu\u00eds","cases":"17","coordinates":"{\"lat\":\"-2.55369045156339\",\"lng\":\"-44.3143738794259\"}","shape_leng":"5417,624407","fid":83},{"name":"Vila Isabel","city":"S\u00e3o Lu\u00eds","cases":"17","coordinates":"{\"lat\":\"-2.559949854205205\",\"lng\":\"-44.319008736603635\"}","shape_leng":"4322,030303","fid":9},{"name":"VILA OPERARIA","city":"S\u00e3o Jos\u00e9 de Ribamar","cases":"17","coordinates":"{\"lat\":-2.566505, \"lng\":-44.185421}","shape_leng":null,"fid":64},{"name":"VILA SARNEY FILHO I","city":"S\u00e3o Jos\u00e9 de Ribamar","cases":"17","coordinates":"{\"lat\":-2.556493, \"lng\":-44.166280}","shape_leng":null,"fid":73},{"name":"Cohab Anil II","city":"S\u00e3o Lu\u00eds","cases":"16","coordinates":"{\"lat\":\"-2.5393708816337375\",\"lng\":\"-44.21832933902063\"}","shape_leng":"1251,597646","fid":158},{"name":"TURIUBA","city":"S\u00e3o Jos\u00e9 de Ribamar","cases":"16","coordinates":"{\"lat\":-2.564188,\"lng\":-44.101074}","shape_leng":null,"fid":56},{"name":"Vila Brasil","city":"S\u00e3o Lu\u00eds","cases":"16","coordinates":"{\"lat\":\"-2.563551140504949\",\"lng\":\"-44.21249285220422\"}","shape_leng":"2834,227148","fid":153},{"name":"Vila Maranh\u00e3o","city":"S\u00e3o Lu\u00eds","cases":"16","coordinates":"{\"lat\":\"-2.635317499659589\",\"lng\":\"-44.326990990631955\"}","shape_leng":"21734,64892","fid":120},{"name":"LIMA VERDE","city":"Pa\u00e7o do Lumiar","cases":"15","coordinates":"{\"lat\":-2.546605,\"lng\":-44.182558}","shape_leng":null,"fid":null},{"name":"Planalto Aurora","city":"S\u00e3o Lu\u00eds","cases":"15","coordinates":"{\"lat\":\"-2.554955574606102\",\"lng\":\"-44.22469327667012\"}","shape_leng":"1800,838575","fid":28},{"name":"VILA BOM VIVER","city":"Raposa","cases":"15","coordinates":"{\"lat\":-2.443187,\"lng\":-44.106321}","shape_leng":null,"fid":null},{"name":"Vila Lob\u00e3o e Vila Roseana Sarney","city":"S\u00e3o Lu\u00eds","cases":"15","coordinates":"{\"lat\":\"-2.5732402651965374\",\"lng\":\"-44.25180330752649\"}","shape_leng":"10797,779543","fid":114},{"name":"Parque Amazonas","city":"S\u00e3o Lu\u00eds","cases":"14","coordinates":"{\"lat\":\"-2.5503120003756172\",\"lng\":\"-44.288281350129026\"}","shape_leng":"3802,422267","fid":80},{"name":"Retiro Natal","city":"S\u00e3o Lu\u00eds","cases":"14","coordinates":"{\"lat\":\"-2.536849858913133\",\"lng\":\"-44.285792260163205\"}","shape_leng":"3156,785357","fid":79},{"name":"S\u00c3O BENEDITO","city":"S\u00e3o Jos\u00e9 de Ribamar","cases":"14","coordinates":"{\"lat\":-2.549053, \"lng\":-44.060379}","shape_leng":null,"fid":48},{"name":"TRIZIDELA DA MAIOBA","city":"S\u00e3o Jos\u00e9 de Ribamar","cases":"14","coordinates":"{\"lat\":-2.542865,\"lng\":-44.191775}","shape_leng":null,"fid":5},{"name":"Diamante","city":"S\u00e3o Lu\u00eds","cases":"13","coordinates":"{\"lat\":\"-2.5297328739496137\",\"lng\":\"-44.29016962527551\"}","shape_leng":"2372,333972","fid":182},{"name":"F\u00e9 em Deus","city":"S\u00e3o Lu\u00eds","cases":"13","coordinates":"{\"lat\":\"-2.529475632797211\",\"lng\":\"-44.27823915957727\"}","shape_leng":"3925,884889","fid":14},{"name":"Madre Deus","city":"S\u00e3o Lu\u00eds","cases":"13","coordinates":"{\"lat\":\"-2.5403569649013136\",\"lng\":\"-44.298280625336545\"}","shape_leng":"2189,094242","fid":46},{"name":"Novo Angelim","city":"S\u00e3o Lu\u00eds","cases":"13","coordinates":"{\"lat\":\"-2.5344833273766296\",\"lng\":\"-44.23128977298059\"}","shape_leng":"3169,912015","fid":74},{"name":"PARQUE JAIR","city":"S\u00e3o Jos\u00e9 de Ribamar","cases":"13","coordinates":"{\"lat\":-2.506933,\"lng\":-44.179510}","shape_leng":null,"fid":6},{"name":"PI\u00c7ARREIRA","city":"S\u00e3o Jos\u00e9 de Ribamar","cases":"13","coordinates":"{\"lat\":-2.5557049731047288,\"lng\":-44.10495758056641}","shape_leng":null,"fid":38},{"name":"Quitandinha \/ Vinhais I \/ Vinhais II","city":"S\u00e3o Lu\u00eds","cases":"13","coordinates":"{\"lat\":\"-2.508073066693138\",\"lng\":\"-44.263304619782346\"}","shape_leng":"5729,288183","fid":8},{"name":"S\u00edtio Pirapora","city":"S\u00e3o Lu\u00eds","cases":"13","coordinates":"{\"lat\":-2.559515141230466, \"lng\": -44.241720809639}","shape_leng":"3455,730816","fid":2},{"name":"Vila Isabel Cafeteira","city":"S\u00e3o Lu\u00eds","cases":"13","coordinates":"{\"lat\":\"-2.542029017416669\",\"lng\":\"-44.22399416446008\"}","shape_leng":"4984,291155","fid":177},{"name":"Barreto","city":"S\u00e3o Lu\u00eds","cases":"12","coordinates":"{\"lat\":\"-2.544429909547244\",\"lng\":\"-44.26193132876672\"}","shape_leng":"4162,898056","fid":181},{"name":"Conjunto Rio Anil","city":"S\u00e3o Lu\u00eds","cases":"12","coordinates":"{\"lat\":\"-2.537141473211348\",\"lng\":\"-44.24802675723352\"}","shape_leng":"3772,692916","fid":47},{"name":"S\u00c3O RAIMUNDO","city":"S\u00e3o Jos\u00e9 de Ribamar","cases":"12","coordinates":"{\"lat\":-2.5555334824608353,\"lng\":-44.068050384521484}","shape_leng":null,"fid":53},{"name":"Vila Cascavel","city":"S\u00e3o Lu\u00eds","cases":"12","coordinates":"{\"lat\":\"-2.593647206967609\",\"lng\":\"-44.21943765512302\"}","shape_leng":"2755,878418","fid":57},{"name":"Vila Vit\u00f3ria","city":"S\u00e3o Lu\u00eds","cases":"12","coordinates":"{\"lat\":\"-2.609421507247129\",\"lng\":\"-44.206996993330144\"}","shape_leng":"4814,353165","fid":169},{"name":"Itapirac\u00f3","city":"S\u00e3o Lu\u00eds","cases":"11","coordinates":"{\"lat\":\"-2.526937593349214\",\"lng\":\"-44.20270815371789\"}","shape_leng":"10124,337568","fid":173},{"name":"Planalto Turu II","city":"S\u00e3o Lu\u00eds","cases":"11","coordinates":"{\"lat\":\"-2.5004533742109927\",\"lng\":\"-44.21666719664305\"}","shape_leng":"957,403966","fid":136},{"name":"Vila S\u00e3o Lu\u00eds","city":"S\u00e3o Lu\u00eds","cases":"11","coordinates":"{\"lat\":\"-2.5472595266756275\",\"lng\":\"-44.33505907534875\"}","shape_leng":"4279,556582","fid":163},{"name":"Alto da Esperan\u00e7a","city":"S\u00e3o Lu\u00eds","cases":"10","coordinates":"{\"lat\":\"-2.5458018459006095\",\"lng\":\"-44.3074215936593\"}","shape_leng":"5688,717056","fid":86},{"name":"Estiva","city":"S\u00e3o Lu\u00eds","cases":"10","coordinates":"{\"lat\":\"-2.7194264884238044\",\"lng\":\"-44.28858140745567\"}","shape_leng":"32950,349907","fid":78},{"name":"Goiabal","city":"S\u00e3o Lu\u00eds","cases":"10","coordinates":"{\"lat\":\"-2.544215544360147\",\"lng\":\"-44.29883852481164\"}","shape_leng":"3810,46342","fid":113},{"name":"OUTEIRO","city":"S\u00e3o Jos\u00e9 de Ribamar","cases":"10","coordinates":"{\"lat\":-2.5512462089220467,\"lng\":-44.06719207763672}","shape_leng":null,"fid":36},{"name":"S\u00e3o Marcos","city":"S\u00e3o Lu\u00eds","cases":"10","coordinates":"{\"lat\":\"-2.490237263975549\",\"lng\":\"-44.28493395327844\"}","shape_leng":"2276,153853","fid":121},{"name":"VILA ALONSO COSTA","city":"S\u00e3o Jos\u00e9 de Ribamar","cases":"10","coordinates":"{\"lat\":-2.497982,\"lng\":-44.207656}","shape_leng":null,"fid":34},{"name":"Vila Mauro Fecury II","city":"S\u00e3o Lu\u00eds","cases":"10","coordinates":"{\"lat\":\"-2.5520612869666666\",\"lng\":\"-44.333256630890745\"}","shape_leng":"3007,689958","fid":149},{"name":"VILA NAZAR\u00c9","city":"Pa\u00e7o do Lumiar","cases":"10","coordinates":"{\"lat\":-2.549222,\"lng\":-44.166187}","shape_leng":null,"fid":null},{"name":"Fumac\u00ea","city":"S\u00e3o Lu\u00eds","cases":"9","coordinates":"{\"lat\":\"-2.562264967989135\",\"lng\":\"-44.337462334626096\"}","shape_leng":"3310,865212","fid":45},{"name":"J.LIMA","city":"S\u00e3o Jos\u00e9 de Ribamar","cases":"9","coordinates":"{\"lat\":-2.568146,\"lng\":-44.179240}","shape_leng":null,"fid":62},{"name":"Mata de Itapera","city":"S\u00e3o Lu\u00eds","cases":"9","coordinates":"{\"lat\":\"-2.6596673967661366\",\"lng\":\"-44.27343264102258\"}","shape_leng":"19429,435684","fid":176},{"name":"NOVO HORIZONTE","city":"Pa\u00e7o do Lumiar","cases":"9","coordinates":null,"shape_leng":null,"fid":null},{"name":"Primavera II (Cohajap II)","city":"S\u00e3o Lu\u00eds","cases":"9","coordinates":"{\"lat\":\"-2.4964969723272286\",\"lng\":\"-44.241331963532346\"}","shape_leng":"1625,872227","fid":53},{"name":"VILA FLAMENGO","city":"S\u00e3o Jos\u00e9 de Ribamar","cases":"9","coordinates":"{\"lat\":-2.563405,\"lng\":-44.190842}","shape_leng":null,"fid":61},{"name":"VILA SAO JOSE","city":"S\u00e3o Jos\u00e9 de Ribamar","cases":"9","coordinates":"{\"lat\":-2.54730190464122,\"lng\":-44.084701538085945}","shape_leng":null,"fid":67},{"name":"CENTRO (Raposa) ","city":"Raposa","cases":"8","coordinates":"{\"lat\":-2.416397,\"lng\":-44.103997}","shape_leng":null,"fid":null},{"name":"PANAQUATIRA","city":"S\u00e3o Jos\u00e9 de Ribamar","cases":"8","coordinates":"{\"lat\":-2.496539351946519,\"lng\":-44.043502807617195}","shape_leng":null,"fid":37},{"name":"Parque Universit\u00e1rio","city":"S\u00e3o Lu\u00eds","cases":"8","coordinates":"{\"lat\":\"-2.559949854205205\",\"lng\":\"-44.22807112216272\"}","shape_leng":"1613,061295","fid":172},{"name":"Ribeira","city":"S\u00e3o Lu\u00eds","cases":"8","coordinates":"{\"lat\":\"-2.629830132982544\",\"lng\":\"-44.24974337100305\"}","shape_leng":"22820,897505","fid":73},{"name":"Santa B\u00e1rbara","city":"S\u00e3o Lu\u00eds","cases":"8","coordinates":"{\"lat\":\"-2.606334802605822\",\"lng\":\"-44.21626670768561\"}","shape_leng":"9443,717166","fid":98},{"name":"VILA DR JULINHO","city":"Pa\u00e7o do Lumiar","cases":"8","coordinates":"{\"lat\":-2.552213,\"lng\":-44.082245}","shape_leng":null,"fid":60},{"name":"ALTO DO FAROL","city":"Raposa","cases":"7","coordinates":"{\"lat\":-2.463997,\"lng\":-44.157539}","shape_leng":null,"fid":null},{"name":"Bom Milagre","city":"S\u00e3o Lu\u00eds","cases":"7","coordinates":"{\"lat\":\"-2.539670994012254\",\"lng\":\"-44.28150072573938\"}","shape_leng":"2001,846319","fid":160},{"name":"Fabril","city":"S\u00e3o Lu\u00eds","cases":"7","coordinates":"{\"lat\":\"-2.531053453718388\",\"lng\":\"-44.288023858063596\"}","shape_leng":"1714,282406","fid":106},{"name":"Ipem Tur\u00fa","city":"S\u00e3o Lu\u00eds","cases":"7","coordinates":"{\"lat\":\"-2.520335040094528\",\"lng\":\"-44.21677100169209\"}","shape_leng":"1423,936169","fid":124},{"name":"JAGUAREMA","city":"S\u00e3o Jos\u00e9 de Ribamar","cases":"7","coordinates":"{\"lat\":-2.582285744968951,\"lng\":-44.12109375}","shape_leng":null,"fid":16},{"name":"MUTIR\u00c3O","city":"S\u00e3o Jos\u00e9 de Ribamar","cases":"7","coordinates":"{\"lat\":-2.531181579164856,\"lng\":-44.07165527343751}","shape_leng":null,"fid":30},{"name":"Parque Sabi\u00e1","city":"S\u00e3o Lu\u00eds","cases":"7","coordinates":"{\"lat\":\"-2.5599927267207025\",\"lng\":\"-44.216870217316526\"}","shape_leng":"1274,535307","fid":69},{"name":"PIR\u00c2MIDE","city":"Raposa","cases":"7","coordinates":"{\"lat\":-2.479599,\"lng\":-44.148940}","shape_leng":null,"fid":null},{"name":"Planalto Vinhais II","city":"S\u00e3o Lu\u00eds","cases":"7","coordinates":"{\"lat\":\"-2.50611279382148\",\"lng\":\"-44.25391771544188\"}","shape_leng":"1747,408945","fid":4},{"name":"RESIDENCIAL CARLOS AUGUSTO","city":"Pa\u00e7o do Lumiar","cases":"7","coordinates":null,"shape_leng":null,"fid":null},{"name":"S\u00cdTIO GRANDE","city":"Pa\u00e7o do Lumiar","cases":"7","coordinates":null,"shape_leng":null,"fid":null},{"name":"TAMBAU","city":"Pa\u00e7o do Lumiar","cases":"7","coordinates":"{\"lat\":-2.549621,\"lng\":-44.163545}","shape_leng":null,"fid":null},{"name":"Vila Ariri","city":"S\u00e3o Lu\u00eds","cases":"7","coordinates":"{\"lat\":\"-2.54503013188152\",\"lng\":\"-44.326819329255\"}","shape_leng":"2701,604234","fid":13},{"name":"VILA SANTA TERESINHA","city":"S\u00e3o Jos\u00e9 de Ribamar","cases":"7","coordinates":"{\"lat\":-2.558963290983976,\"lng\":-44.1950798034668}","shape_leng":null,"fid":66},{"name":"Apicum","city":"S\u00e3o Lu\u00eds","cases":"6","coordinates":"{\"lat\":\"-2.5365412472099806\",\"lng\":\"-44.29386034488\"}","shape_leng":"2437,204264","fid":97},{"name":"LARANJAL","city":"S\u00e3o Jos\u00e9 de Ribamar","cases":"6","coordinates":"{\"lat\":-2.561422,\"lng\":-44.151110}","shape_leng":null,"fid":22},{"name":"Quebra-Pote","city":"S\u00e3o Lu\u00eds","cases":"6","coordinates":"{\"lat\":\"-2.706051905737198\",\"lng\":\"-44.24669603147911\"}","shape_leng":"27268,716148","fid":144},{"name":"Recanto dos P\u00e1ssaros","city":"S\u00e3o Lu\u00eds","cases":"6","coordinates":"{\"lat\":\"-2.579463917250908\",\"lng\":\"-44.1921785180329\"}","shape_leng":"1861,364466","fid":88},{"name":"Recanto Fialho \/ Vila Uni\u00e3o","city":"S\u00e3o Lu\u00eds","cases":"6","coordinates":"{\"lat\":\"-2.5104740216016155\",\"lng\":\"-44.23480883120813\"}","shape_leng":"1945,345125","fid":184},{"name":"TIJUPA QUEIMADO","city":"S\u00e3o Jos\u00e9 de Ribamar","cases":"6","coordinates":"{\"lat\":-2.557174,\"lng\":-44.174104}","shape_leng":null,"fid":55},{"name":"VIEIRA","city":"S\u00e3o Jos\u00e9 de Ribamar","cases":"6","coordinates":"{\"lat\":-2.5550190103917045,\"lng\":-44.053974151611335}","shape_leng":null,"fid":58},{"name":"Vila dos Frades","city":"S\u00e3o Lu\u00eds","cases":"6","coordinates":"{\"lat\":\"-2.5732402651965374\",\"lng\":\"-44.266566185944455\"}","shape_leng":"4732,672299","fid":142},{"name":"VILA MARESIA","city":"Raposa","cases":"6","coordinates":"{\"lat\":-2.443661,\"lng\":-44.099148}","shape_leng":null,"fid":null},{"name":"Vila Mauro Fecury I","city":"S\u00e3o Lu\u00eds","cases":"6","coordinates":"{\"lat\":\"-2.5385991637688874\",\"lng\":\"-44.334029107087034\"}","shape_leng":"4862,19329","fid":93},{"name":"VILA ROSEANA SARNEY","city":"S\u00e3o Jos\u00e9 de Ribamar","cases":"6","coordinates":"{\"lat\":-2.544901017859079,\"lng\":-44.07869338989258}","shape_leng":null,"fid":65},{"name":"VILA SAO LUIS","city":"S\u00e3o Jos\u00e9 de Ribamar","cases":"6","coordinates":"{\"lat\":-2.5644509655301384,\"lng\":-44.18375015258789}","shape_leng":null,"fid":68},{"name":"Ilhinha","city":"S\u00e3o Lu\u00eds","cases":"5","coordinates":"{\"lat\":\"-2.505157615522844\",\"lng\":\"-44.309309868805784\"}","shape_leng":"3377,983712","fid":145},{"name":"PARAISO DA ROSAS","city":"Pa\u00e7o do Lumiar","cases":"5","coordinates":null,"shape_leng":null,"fid":null},{"name":"PAU DEITADO","city":"Pa\u00e7o do Lumiar","cases":"5","coordinates":null,"shape_leng":null,"fid":null},{"name":"Recanto dos Signos","city":"S\u00e3o Lu\u00eds","cases":"5","coordinates":"{\"lat\":\"-2.567578869760955\",\"lng\":\"-44.19189079215827\"}","shape_leng":"3028,201182","fid":168},{"name":"VILA CAFETEIRA","city":"S\u00e3o Jos\u00e9 de Ribamar","cases":"5","coordinates":"{\"lat\":-2.56102117169424,\"lng\":-44.19164657592774}","shape_leng":null,"fid":59},{"name":"Vila Concei\u00e7\u00e3o","city":"S\u00e3o Lu\u00eds","cases":"5","coordinates":"{\"lat\":\"-2.5543553569019366\",\"lng\":\"-44.234392144467975\"}","shape_leng":"2423,558953","fid":10},{"name":"Vila Jeniparana","city":"S\u00e3o Lu\u00eds","cases":"5","coordinates":"{\"lat\":\"-2.581564636699485\",\"lng\":\"-44.187715322232116\"}","shape_leng":"2060,209255","fid":32},{"name":"VILA SARNEY FILHO II","city":"S\u00e3o Jos\u00e9 de Ribamar","cases":"5","coordinates":"{\"lat\":-2.565994,\"lng\":-44.167941}","shape_leng":null,"fid":72},{"name":"CENTRO (Pa\u00e7o do Lumiar)","city":"Pa\u00e7o do Lumiar","cases":"4","coordinates":null,"shape_leng":null,"fid":null},{"name":"Gancharia","city":"S\u00e3o Lu\u00eds","cases":"4","coordinates":"{\"lat\":\"-2.5558340860427404\",\"lng\":\"-44.32141199588098\"}","shape_leng":"3825,949809","fid":166},{"name":"IGUAIBA","city":"Pa\u00e7o do Lumiar","cases":"4","coordinates":null,"shape_leng":null,"fid":null},{"name":"JU\u00c7ATUBA","city":"S\u00e3o Jos\u00e9 de Ribamar","cases":"4","coordinates":"{\"lat\":-2.620012335900567,\"lng\":-44.128646850585945}","shape_leng":null,"fid":21},{"name":"MATINHA","city":"S\u00e3o Jos\u00e9 de Ribamar","cases":"4","coordinates":"{\"lat\":-2.590834,\"lng\":-44.149511}","shape_leng":null,"fid":26},{"name":"PARAN\u00c3 III","city":"Pa\u00e7o do Lumiar","cases":"4","coordinates":"{\"lat\":-2.535314,\"lng\":-44.162418}","shape_leng":null,"fid":null},{"name":"PARQUE DAS PALMEIRAS","city":"S\u00e3o Jos\u00e9 de Ribamar","cases":"4","coordinates":"{\"lat\":-2.510773645667752,\"lng\":-44.18889999389649}","shape_leng":null,"fid":69},{"name":"Santa Rosa","city":"S\u00e3o Lu\u00eds","cases":"4","coordinates":"{\"lat\":\"-2.5039571337422557\",\"lng\":\"-44.21300783633508\"}","shape_leng":"6102,422393","fid":95},{"name":"UPAON A\u00c7U","city":"Pa\u00e7o do Lumiar","cases":"4","coordinates":"{\"lat\":-2.535128,\"lng\":-44.166030}","shape_leng":null,"fid":null},{"name":"VILA S\u00c3O JOS\u00c9 II","city":"Pa\u00e7o do Lumiar","cases":"4","coordinates":"{\"lat\":-2.523879,\"lng\":-44.166488}","shape_leng":null,"fid":null},{"name":"BOA VISTA","city":"S\u00e3o Jos\u00e9 de Ribamar","cases":"3","coordinates":"{\"lat\":-2.492080384808139,\"lng\":-44.18375015258789}","shape_leng":null,"fid":35},{"name":"BOM JARDIM","city":"S\u00e3o Jos\u00e9 de Ribamar","cases":"3","coordinates":"{\"lat\":-2.6289293646392116,\"lng\":-44.16641235351563}","shape_leng":null,"fid":39},{"name":"CIDADE ALTA","city":"S\u00e3o Jos\u00e9 de Ribamar","cases":"3","coordinates":"{\"lat\":-2.5647939444081844,\"lng\":-44.14615631103516}","shape_leng":null,"fid":75},{"name":"INHAUMA","city":"Raposa","cases":"3","coordinates":null,"shape_leng":null,"fid":null},{"name":"ITAPARY","city":"S\u00e3o Jos\u00e9 de Ribamar","cases":"3","coordinates":"{\"lat\":-2.523292836106146,\"lng\":-44.043502807617195}","shape_leng":null,"fid":13},{"name":"Jardim Coelho Neto","city":"S\u00e3o Lu\u00eds","cases":"3","coordinates":"{\"lat\":\"-2.4964969723272286\",\"lng\":\"-44.24639597415246\"}","shape_leng":"4407,622357","fid":104},{"name":"MATA","city":"S\u00e3o Jos\u00e9 de Ribamar","cases":"3","coordinates":"{\"lat\":-2.5829716930353306,\"lng\":-44.163665771484375}","shape_leng":null,"fid":25},{"name":"MIRITITIUA","city":"S\u00e3o Jos\u00e9 de Ribamar","cases":"3","coordinates":"{\"lat\":-2.5498742783695674,\"lng\":-44.073715209960945}","shape_leng":null,"fid":33},{"name":"MORADA NOVA","city":"Pa\u00e7o do Lumiar","cases":"3","coordinates":null,"shape_leng":null,"fid":null},{"name":"PARQUE FLORENCIO","city":"Pa\u00e7o do Lumiar","cases":"3","coordinates":null,"shape_leng":null,"fid":null},{"name":"SITIO DO APICUM","city":"S\u00e3o Jos\u00e9 de Ribamar","cases":"3","coordinates":"{\"lat\":-2.5356404127077643,\"lng\":-44.05981063842774}","shape_leng":null,"fid":54},{"name":"SITIO NATUREZA","city":"Pa\u00e7o do Lumiar","cases":"3","coordinates":null,"shape_leng":null,"fid":null},{"name":"Turu \/ Jardim das Oliveiras (Cohajoli)","city":"S\u00e3o Lu\u00eds","cases":"3","coordinates":"{\"lat\":\"-2.505157615522844\",\"lng\":\"-44.23566713809289\"}","shape_leng":"3842,718319","fid":48},{"name":"VILA S\u00c3O JOS\u00c9","city":"Pa\u00e7o do Lumiar","cases":"3","coordinates":"{\"lat\":-2.560507,\"lng\":-44.185076}","shape_leng":null,"fid":null},{"name":"VILA SARNAMBI","city":"S\u00e3o Jos\u00e9 de Ribamar","cases":"3","coordinates":"{\"lat\":-2.544729525774916,\"lng\":-44.06204223632813}","shape_leng":null,"fid":70},{"name":"Cantinho do C\u00e9u \/ Conjunto Manoel Beckman","city":"S\u00e3o Lu\u00eds","cases":"2","coordinates":"{\"lat\":\"-2.520592283056691\",\"lng\":\"-44.244336037629026\"}","shape_leng":"3214,198554","fid":19},{"name":"CIDADE NOVA","city":"Pa\u00e7o do Lumiar","cases":"2","coordinates":null,"shape_leng":null,"fid":null},{"name":"Desterro","city":"S\u00e3o Lu\u00eds","cases":"2","coordinates":"{\"lat\":\"-2.5361125141812964\",\"lng\":\"-44.305275826447385\"}","shape_leng":"3757,493884","fid":12},{"name":"Itaqui","city":"S\u00e3o Lu\u00eds","cases":"2","coordinates":"{\"lat\":\"-2.6034218441274755\",\"lng\":\"-44.34381380557336\"}","shape_leng":"0","fid":187},{"name":"Jambeiro","city":"S\u00e3o Lu\u00eds","cases":"2","coordinates":"{\"lat\":\"-2.562007733330903\",\"lng\":\"-44.30321588992395\"}","shape_leng":"2709,115949","fid":159},{"name":"JARDIM DAS MERC\u00caS ","city":"Pa\u00e7o do Lumiar","cases":"2","coordinates":"{\"lat\":-2.531242,\"lng\":-44.147643}","shape_leng":null,"fid":null},{"name":"JENIPARANA","city":"S\u00e3o Jos\u00e9 de Ribamar","cases":"2","coordinates":"{\"lat\":-2.5781700487963195,\"lng\":-44.141693115234375}","shape_leng":null,"fid":20},{"name":"PARQUE THIAGO AROSO","city":"Pa\u00e7o do Lumiar","cases":"2","coordinates":null,"shape_leng":null,"fid":null},{"name":"Salinas do Sacav\u00e9m","city":"S\u00e3o Lu\u00eds","cases":"2","coordinates":"{\"lat\":\"-2.5634631261169156\",\"lng\":\"-44.258152083662175\"}","shape_leng":"6136,46727","fid":18},{"name":"S\u00e3o Raimundo do Gapara","city":"S\u00e3o Lu\u00eds","cases":"2","coordinates":"{\"lat\":\"-2.6054796528248927\",\"lng\":\"-44.28819551944055\"}","shape_leng":"17298,610726","fid":137},{"name":"S\u00edtio Leal","city":"S\u00e3o Lu\u00eds","cases":"2","coordinates":"{\"lat\":\"-2.554942258545604\",\"lng\":\"-44.26339045047082\"}","shape_leng":"2468,988113","fid":66},{"name":"TENDAL MIRIM","city":"Pa\u00e7o do Lumiar","cases":"2","coordinates":null,"shape_leng":null,"fid":null},{"name":"Vila 25 de Maio \/ Conjunto dos Ip\u00eas","city":"S\u00e3o Lu\u00eds","cases":"2","coordinates":"{\"lat\":\"-2.5241878818982095\",\"lng\":\"-44.25972350533055\"}","shape_leng":"4885,993677","fid":7},{"name":"Vila Am\u00e9rica","city":"S\u00e3o Lu\u00eds","cases":"2","coordinates":"{\"lat\":\"-2.581192941769949\",\"lng\":\"-44.19019359600072\"}","shape_leng":"1729,433708","fid":135},{"name":"VILA BOA ESPERAN\u00c7A","city":"Raposa","cases":"2","coordinates":null,"shape_leng":null,"fid":null},{"name":"Vivendas do Turu","city":"S\u00e3o Lu\u00eds","cases":"2","coordinates":"{\"lat\":-2.5598259057637835, \"lng\":-44.24216119272468}","shape_leng":"868,424932","fid":16},{"name":"A\u00c7AIZAL GRANDE","city":"Pa\u00e7o do Lumiar","cases":"1","coordinates":null,"shape_leng":null,"fid":null},{"name":"ALTOS DO ITAPIRAC\u00d3","city":"S\u00e3o Jos\u00e9 de Ribamar","cases":"1","coordinates":"{\"lat\":-2.524664794863237,\"lng\":-44.188556671142585}","shape_leng":null,"fid":7},{"name":"BACURIZAL","city":"Pa\u00e7o do Lumiar","cases":"1","coordinates":null,"shape_leng":null,"fid":null},{"name":"BEIRA RIO","city":"Pa\u00e7o do Lumiar","cases":"1","coordinates":null,"shape_leng":null,"fid":null},{"name":"CACARAPE","city":"Raposa","cases":"1","coordinates":null,"shape_leng":null,"fid":null},{"name":"Cohapam","city":"S\u00e3o Lu\u00eds","cases":"1","coordinates":"{\"lat\":\"-2.56638071548868\",\"lng\":\"-44.22768488406457\"}","shape_leng":"1863,323626","fid":34},{"name":"Conjunto S\u00e3o Marcos","city":"S\u00e3o Lu\u00eds","cases":"1","coordinates":"{\"lat\":\"-2.493667244842961\",\"lng\":\"-44.2924012231759\"}","shape_leng":"2579,179698","fid":128},{"name":"Coqueiro","city":"S\u00e3o Lu\u00eds","cases":"1","coordinates":"{\"lat\":\"-2.7368890997829913\",\"lng\":\"-44.361151149297825\"}","shape_leng":"16546,654073","fid":123},{"name":"ITAPERA MAIOBA","city":"Pa\u00e7o do Lumiar","cases":"1","coordinates":null,"shape_leng":null,"fid":null},{"name":"NOVA VIDA","city":"Pa\u00e7o do Lumiar","cases":"1","coordinates":null,"shape_leng":null,"fid":null},{"name":"NOVO PA\u00c7O ","city":"Pa\u00e7o do Lumiar","cases":"1","coordinates":null,"shape_leng":null,"fid":null},{"name":"PARATY","city":"Pa\u00e7o do Lumiar","cases":"1","coordinates":null,"shape_leng":null,"fid":null},{"name":"Parque \u00c2ngela \/ Residencial Vinhais III","city":"S\u00e3o Lu\u00eds","cases":"1","coordinates":"{\"lat\":\"-2.5209294762914145\",\"lng\":\"-44.25465949471043\"}","shape_leng":"1331,558646","fid":91},{"name":"Planalto Anil IV Centauro","city":"S\u00e3o Lu\u00eds","cases":"1","coordinates":"{\"lat\":\"-2.550860848574111\",\"lng\":\"-44.22047510623254\"}","shape_leng":"1855,196133","fid":125},{"name":"PRESIDENTE VARGAS","city":"Pa\u00e7o do Lumiar","cases":"1","coordinates":null,"shape_leng":null,"fid":null},{"name":"QUINTA","city":"S\u00e3o Jos\u00e9 de Ribamar","cases":"1","coordinates":"{\"lat\":-2.565822880490445,\"lng\":-44.13482666015626}","shape_leng":null,"fid":41},{"name":"RECANTO DA PAZ","city":"S\u00e3o Jos\u00e9 de Ribamar","cases":"1","coordinates":"{\"lat\":-2.557419878283348,\"lng\":-44.18941497802735}","shape_leng":null,"fid":42},{"name":"Recanto dos Nobres","city":"S\u00e3o Lu\u00eds","cases":"1","coordinates":"{\"lat\":\"-2.498812199373408\",\"lng\":\"-44.25300493716516\"}","shape_leng":"3286,255295","fid":140},{"name":"RECANTO DOS POETAS","city":"Pa\u00e7o do Lumiar","cases":"1","coordinates":null,"shape_leng":null,"fid":null},{"name":"RESIDENCIAL ARACAGY","city":"Raposa","cases":"1","coordinates":null,"shape_leng":null,"fid":null},{"name":"Residencial Esperan\u00e7a","city":"S\u00e3o Lu\u00eds","cases":"1","coordinates":"{\"lat\":\"-2.5187915812541912\",\"lng\":\"-44.239357857697385\"}","shape_leng":"3517,019414","fid":6},{"name":"RESIDENCIAL MANAIRA","city":"Pa\u00e7o do Lumiar","cases":"1","coordinates":null,"shape_leng":null,"fid":null},{"name":"RESIDENCIAL SILVANA","city":"Pa\u00e7o do Lumiar","cases":"1","coordinates":null,"shape_leng":null,"fid":null},{"name":"Santa Eul\u00e1lia \/ Vila Independente","city":"S\u00e3o Lu\u00eds","cases":"1","coordinates":"{\"lat\":\"-2.513389460916863\",\"lng\":\"-44.275320916169065\"}","shape_leng":"9436,368059","fid":51},{"name":"SANTA MARIA","city":"S\u00e3o Jos\u00e9 de Ribamar","cases":"1","coordinates":"{\"lat\":-2.650192791010752,\"lng\":-44.16847229003907}","shape_leng":null,"fid":45},{"name":"S\u00c3O BRAS E MACACOS","city":"S\u00e3o Jos\u00e9 de Ribamar","cases":"1","coordinates":"{\"lat\":-2.5994343352623246,\"lng\":-44.15679931640626}","shape_leng":null,"fid":49},{"name":"S\u00c3O JORGE","city":"Pa\u00e7o do Lumiar","cases":"1","coordinates":null,"shape_leng":null,"fid":null},{"name":"S\u00c3O JOSE DOS INDIOS","city":"S\u00e3o Jos\u00e9 de Ribamar","cases":"1","coordinates":"{\"lat\":-2.550045769768652,\"lng\":-44.09637451171876}","shape_leng":null,"fid":51},{"name":"S\u00c3O PAULO","city":"S\u00e3o Jos\u00e9 de Ribamar","cases":"1","coordinates":"{\"lat\":-2.6666545478209143,\"lng\":-44.15817260742188}","shape_leng":null,"fid":52},{"name":"S\u00e3o Raimundo Bacanga","city":"S\u00e3o Lu\u00eds","cases":"1","coordinates":"{\"lat\":\"-2.549831900488667\",\"lng\":\"-44.32166948794641\"}","shape_leng":"6118,669794","fid":64},{"name":"T\u00fanel Sacav\u00e9m","city":"S\u00e3o Lu\u00eds","cases":"1","coordinates":"{\"lat\":\"-2.5514266936816186\",\"lng\":\"-44.26313295840539\"}","shape_leng":"3087,407922","fid":56},{"name":"VASSORAL","city":"Pa\u00e7o do Lumiar","cases":"1","coordinates":null,"shape_leng":null,"fid":null},{"name":"Vila Concei\u00e7\u00e3o - Coroadinho","city":"S\u00e3o Lu\u00eds","cases":"1","coordinates":"{\"lat\":\"-2.568953050948008\",\"lng\":\"-44.261588006012815\"}","shape_leng":"2125,902884","fid":81},{"name":"Vila Cruzado","city":"S\u00e3o Lu\u00eds","cases":"1","coordinates":"{\"lat\":\"-2.5125319794409413\",\"lng\":\"-44.2353962610915\"}","shape_leng":"975,691827","fid":60},{"name":"Vila Dom Lu\u00eds","city":"S\u00e3o Lu\u00eds","cases":"1","coordinates":"{\"lat\":\"-2.557206010230955\",\"lng\":\"-44.314803032868284\"}","shape_leng":"2076,517683","fid":185},{"name":"VILA DO POVO","city":"Pa\u00e7o do Lumiar","cases":"1","coordinates":null,"shape_leng":null,"fid":null},{"name":"VILA EPITACIO CAFETEIRA","city":"Pa\u00e7o do Lumiar","cases":"1","coordinates":null,"shape_leng":null,"fid":null},{"name":"Vila Menino Jesus de Praga \/ Cohaserma \/ Planalto do Calhau \/ Vinhais V","city":"S\u00e3o Lu\u00eds","cases":"1","coordinates":"{\"lat\":\"-2.5085875574018077\",\"lng\":\"-44.250859169953245\"}","shape_leng":"2344,518685","fid":31},{"name":"VILA SARNEY","city":"Pa\u00e7o do Lumiar","cases":"1","coordinates":null,"shape_leng":null,"fid":null},{"name":"ZUMBI DOS PALMARES","city":"Pa\u00e7o do Lumiar","cases":"1","coordinates":null,"shape_leng":null,"fid":null}]